{
  "type": "FeatureCollection",
  "features": [
    {
      "type": "Feature",
      "geometry": {
        "type": "Point",
        "coordinates": [
          128.6018,
          35.8713
        ]
      },
      "properties": {
        "osmid": 257363453,
        "cellid": 0,
        "name": "대구",
        "name:ko": "대구",
        "name:en": "Daegu"
      }
    },
    {
      "type": "Feature",
      "geometry": {
        "type": "Point",
        "coordinates": [
          127.3848,
          36.3496
        ]
      },
      "properties": {
        "osmid": 257363455,
        "cellid": 1,
        "name": "대전",
        "name:ko": "대전",
        "name:en": "Daejeon"
      }
    },
    {
      "type": "Feature",
      "geometry": {
        "type": "Point",
        "coordinates": [
          127.1262092,
          37.4201556
        ]
      },
      "properties": {
        "osmid": 257363469,
        "cellid": 2,
        "name": "성남시",
        "name:ko": "성남시",
        "name:en": "Seongnam-si"
      }
    },
    {
      "type": "Feature",
      "geometry": {
        "type": "Point",
        "coordinates": [
          128.7260798,
          36.5634886
        ]
      },
      "properties": {
        "osmid": 257370655,
        "cellid": 3,
        "name": "안동시",
        "name:ko": "안동시",
        "name:en": "Andong-si"
      }
    },
    {
      "type": "Feature",
      "geometry": {
        "type": "Point",
        "coordinates": [
          129.2248811,
          35.8556705
        ]
      },
      "properties": {
        "osmid": 257370656,
        "cellid": 4,
        "name": "경주시",
        "name:ko": "경주시",
        "name:en": "Gyeongju-si"
      }
    },
    {
      "type": "Feature",
      "geometry": {
        "type": "Point",
        "coordinates": [
          126.3847547,
          34.7903335
        ]
      },
      "properties": {
        "osmid": 257370657,
        "cellid": 5,
        "name": "목포시",
        "name:ko": "목포시",
        "name:en": "Mokpo-si"
      }
    },
    {
      "type": "Feature",
      "geometry": {
        "type": "Point",
        "coordinates": [
          128.6818586,
          35.227956
        ]
      },
      "properties": {
        "osmid": 257370659,
        "cellid": 6,
        "name": "창원시",
        "name:ko": "창원시",
        "name:en": "Changwon"
      }
    },
    {
      "type": "Feature",
      "geometry": {
        "type": "Point",
        "coordinates": [
          126.8308604,
          37.3217152
        ]
      },
      "properties": {
        "osmid": 257372341,
        "cellid": 7,
        "name": "안산시",
        "name:ko": "안산시",
        "name:en": "Ansan-si"
      }
    },
    {
      "type": "Feature",
      "geometry": {
        "type": "Point",
        "coordinates": [
          127.0287472,
          37.2633325
        ]
      },
      "properties": {
        "osmid": 257764593,
        "cellid": 8,
        "name": "수원시",
        "name:ko": "수원시",
        "name:en": "Suwon-si"
      }
    },
    {
      "type": "Feature",
      "geometry": {
        "type": "Point",
        "coordinates": [
          127.4891742,
          36.6421169
        ]
      },
      "properties": {
        "osmid": 309947253,
        "cellid": 9,
        "name": "청주시",
        "name:ko": "청주시",
        "name:en": "Cheongju-si"
      }
    },
    {
      "type": "Feature",
      "geometry": {
        "type": "Point",
        "coordinates": [
          127.0774625,
          37.1499376
        ]
      },
      "properties": {
        "osmid": 311886695,
        "cellid": 10,
        "name": "오산시",
        "name:ko": "오산시",
        "name:en": "Osan"
      }
    },
    {
      "type": "Feature",
      "geometry": {
        "type": "Point",
        "coordinates": [
          129.0752365,
          35.1799528
        ]
      },
      "properties": {
        "osmid": 358015143,
        "cellid": 11,
        "name": "부산",
        "name:ko": "부산",
        "name:en": "Busan"
      }
    },
    {
      "type": "Feature",
      "geometry": {
        "type": "Point",
        "coordinates": [
          126.8515089,
          35.1595775
        ]
      },
      "properties": {
        "osmid": 358015168,
        "cellid": 12,
        "name": "광주",
        "name:ko": "광주",
        "name:en": "Gwangju"
      }
    },
    {
      "type": "Feature",
      "geometry": {
        "type": "Point",
        "coordinates": [
          126.8319452,
          37.6581862
        ]
      },
      "properties": {
        "osmid": 358015198,
        "cellid": 13,
        "name": "고양시",
        "name:ko": "고양시",
        "name:en": "Goyang"
      }
    },
    {
      "type": "Feature",
      "geometry": {
        "type": "Point",
        "coordinates": [
          127.1480657,
          35.8242715
        ]
      },
      "properties": {
        "osmid": 358015235,
        "cellid": 14,
        "name": "전주시",
        "name:ko": "전주시",
        "name:en": "Jeonju"
      }
    },
    {
      "type": "Feature",
      "geometry": {
        "type": "Point",
        "coordinates": [
          129.3429384,
          36.0189315
        ]
      },
      "properties": {
        "osmid": 358015241,
        "cellid": 15,
        "name": "포항시",
        "name:ko": "포항시",
        "name:en": "Pohang-si"
      }
    },
    {
      "type": "Feature",
      "geometry": {
        "type": "Point",
        "coordinates": [
          128.8908228,
          35.2310947
        ]
      },
      "properties": {
        "osmid": 358015263,
        "cellid": 16,
        "name": "김해시",
        "name:ko": null,
        "name:en": "Gimhae"
      }
    },
    {
      "type": "Feature",
      "geometry": {
        "type": "Point",
        "coordinates": [
          127.033929,
          37.7381078
        ]
      },
      "properties": {
        "osmid": 358015268,
        "cellid": 17,
        "name": "의정부시",
        "name:ko": "의정부시",
        "name:en": "Uijeongbu-si"
      }
    },
    {
      "type": "Feature",
      "geometry": {
        "type": "Point",
        "coordinates": [
          128.1079953,
          35.1803459
        ]
      },
      "properties": {
        "osmid": 358015281,
        "cellid": 18,
        "name": "진주시",
        "name:ko": "진주시",
        "name:en": "Jinju-si"
      }
    },
    {
      "type": "Feature",
      "geometry": {
        "type": "Point",
        "coordinates": [
          128.3444692,
          36.1195513
        ]
      },
      "properties": {
        "osmid": 358015287,
        "cellid": 19,
        "name": "구미시",
        "name:ko": "구미시",
        "name:en": "Gumi-si"
      }
    },
    {
      "type": "Feature",
      "geometry": {
        "type": "Point",
        "coordinates": [
          126.9578025,
          35.9479291
        ]
      },
      "properties": {
        "osmid": 358015292,
        "cellid": 20,
        "name": "익산시",
        "name:ko": "익산시",
        "name:en": "Iksan-si"
      }
    },
    {
      "type": "Feature",
      "geometry": {
        "type": "Point",
        "coordinates": [
          126.5130589,
          33.4930566
        ]
      },
      "properties": {
        "osmid": 358015303,
        "cellid": 21,
        "name": "제주시",
        "name:ko": "제주시",
        "name:en": "Jeju-si"
      }
    },
    {
      "type": "Feature",
      "geometry": {
        "type": "Point",
        "coordinates": [
          127.659859,
          34.7546257
        ]
      },
      "properties": {
        "osmid": 358015308,
        "cellid": 22,
        "name": "여수시",
        "name:ko": "여수시",
        "name:en": "Yeosu"
      }
    },
    {
      "type": "Feature",
      "geometry": {
        "type": "Point",
        "coordinates": [
          127.4872992,
          34.9505457
        ]
      },
      "properties": {
        "osmid": 358015319,
        "cellid": 23,
        "name": "순천시",
        "name:ko": "순천시",
        "name:en": "Suncheon-si"
      }
    },
    {
      "type": "Feature",
      "geometry": {
        "type": "Point",
        "coordinates": [
          126.7369036,
          35.9679984
        ]
      },
      "properties": {
        "osmid": 358015322,
        "cellid": 24,
        "name": "군산시",
        "name:ko": "군산시",
        "name:en": "Gunsan-si"
      }
    },
    {
      "type": "Feature",
      "geometry": {
        "type": "Point",
        "coordinates": [
          126.9349025,
          37.3615229
        ]
      },
      "properties": {
        "osmid": 358015330,
        "cellid": 25,
        "name": "군포시",
        "name:ko": "군포시",
        "name:en": "Gunpo-si"
      }
    },
    {
      "type": "Feature",
      "geometry": {
        "type": "Point",
        "coordinates": [
          127.7297641,
          37.8810569
        ]
      },
      "properties": {
        "osmid": 358015347,
        "cellid": 26,
        "name": "춘천시",
        "name:ko": "춘천시",
        "name:en": "Chuncheon-si"
      }
    },
    {
      "type": "Feature",
      "geometry": {
        "type": "Point",
        "coordinates": [
          128.741329,
          35.825122
        ]
      },
      "properties": {
        "osmid": 358015360,
        "cellid": 27,
        "name": "경산시",
        "name:ko": "경산시",
        "name:en": "Gyeongsan-si"
      }
    },
    {
      "type": "Feature",
      "geometry": {
        "type": "Point",
        "coordinates": [
          129.0370582,
          35.3349979
        ]
      },
      "properties": {
        "osmid": 358015368,
        "cellid": 28,
        "name": "양산시",
        "name:ko": "양산시",
        "name:en": "Yangsan"
      }
    },
    {
      "type": "Feature",
      "geometry": {
        "type": "Point",
        "coordinates": [
          128.621207,
          34.8804677
        ]
      },
      "properties": {
        "osmid": 358015380,
        "cellid": 29,
        "name": "거제시",
        "name:ko": "거제시",
        "name:en": "Geoje-si"
      }
    },
    {
      "type": "Feature",
      "geometry": {
        "type": "Point",
        "coordinates": [
          127.279971,
          37.007773
        ]
      },
      "properties": {
        "osmid": 358015396,
        "cellid": 30,
        "name": "안성시",
        "name:ko": "안성시",
        "name:en": "Anseong-si"
      }
    },
    {
      "type": "Feature",
      "geometry": {
        "type": "Point",
        "coordinates": [
          127.4429132,
          37.2808823
        ]
      },
      "properties": {
        "osmid": 358015415,
        "cellid": 31,
        "name": "이천시",
        "name:ko": "이천시",
        "name:en": "Icheon-si"
      }
    },
    {
      "type": "Feature",
      "geometry": {
        "type": "Point",
        "coordinates": [
          126.9689861,
          37.3449082
        ]
      },
      "properties": {
        "osmid": 358015422,
        "cellid": 32,
        "name": "의왕시",
        "name:ko": "의왕시",
        "name:en": "Uiwang"
      }
    },
    {
      "type": "Feature",
      "geometry": {
        "type": "Point",
        "coordinates": [
          126.450317,
          36.784499
        ]
      },
      "properties": {
        "osmid": 358015429,
        "cellid": 33,
        "name": "서산시",
        "name:ko": "서산시",
        "name:en": "Seosan-si"
      }
    },
    {
      "type": "Feature",
      "geometry": {
        "type": "Point",
        "coordinates": [
          127.0987857,
          36.1868623
        ]
      },
      "properties": {
        "osmid": 358015455,
        "cellid": 34,
        "name": "논산시",
        "name:ko": "논산시",
        "name:en": "Nonsan-si"
      }
    },
    {
      "type": "Feature",
      "geometry": {
        "type": "Point",
        "coordinates": [
          127.6959512,
          34.9406452
        ]
      },
      "properties": {
        "osmid": 358015462,
        "cellid": 35,
        "name": "광양시",
        "name:ko": "광양시",
        "name:en": "Gwangyang-si"
      }
    },
    {
      "type": "Feature",
      "geometry": {
        "type": "Point",
        "coordinates": [
          126.8559787,
          35.5697678
        ]
      },
      "properties": {
        "osmid": 358015496,
        "cellid": 36,
        "name": "정읍시",
        "name:ko": "정읍시",
        "name:en": "Jeongeup-si"
      }
    },
    {
      "type": "Feature",
      "geometry": {
        "type": "Point",
        "coordinates": [
          128.433205,
          34.854254
        ]
      },
      "properties": {
        "osmid": 358015505,
        "cellid": 37,
        "name": "통영시",
        "name:ko": "통영시",
        "name:en": "Tongyeong-si"
      }
    },
    {
      "type": "Feature",
      "geometry": {
        "type": "Point",
        "coordinates": [
          128.1590614,
          36.4104478
        ]
      },
      "properties": {
        "osmid": 358015507,
        "cellid": 38,
        "name": "상주시",
        "name:ko": "상주시",
        "name:en": "Sangju-si"
      }
    },
    {
      "type": "Feature",
      "geometry": {
        "type": "Point",
        "coordinates": [
          126.613165,
          36.33401
        ]
      },
      "properties": {
        "osmid": 358015515,
        "cellid": 39,
        "name": "보령시",
        "name:ko": "보령시",
        "name:en": "Boryeong-si"
      }
    },
    {
      "type": "Feature",
      "geometry": {
        "type": "Point",
        "coordinates": [
          126.880557,
          35.803815
        ]
      },
      "properties": {
        "osmid": 358015517,
        "cellid": 40,
        "name": "김제시",
        "name:ko": "김제시",
        "name:en": "Gimje"
      }
    },
    {
      "type": "Feature",
      "geometry": {
        "type": "Point",
        "coordinates": [
          128.624054,
          36.805685
        ]
      },
      "properties": {
        "osmid": 358015526,
        "cellid": 41,
        "name": "영주시",
        "name:ko": "영주시",
        "name:en": "Yeongju-si"
      }
    },
    {
      "type": "Feature",
      "geometry": {
        "type": "Point",
        "coordinates": [
          128.7466992,
          35.503839
        ]
      },
      "properties": {
        "osmid": 358015529,
        "cellid": 42,
        "name": "밀양시",
        "name:ko": "밀양시",
        "name:en": "Miryang"
      }
    },
    {
      "type": "Feature",
      "geometry": {
        "type": "Point",
        "coordinates": [
          128.064562,
          35.003468
        ]
      },
      "properties": {
        "osmid": 358015533,
        "cellid": 43,
        "name": "사천시",
        "name:ko": "사천시",
        "name:en": "Sacheon-si"
      }
    },
    {
      "type": "Feature",
      "geometry": {
        "type": "Point",
        "coordinates": [
          128.186793,
          36.58629
        ]
      },
      "properties": {
        "osmid": 358015543,
        "cellid": 44,
        "name": "문경시",
        "name:ko": "문경시",
        "name:en": "Mungyeong-si"
      }
    },
    {
      "type": "Feature",
      "geometry": {
        "type": "Point",
        "coordinates": [
          126.7108313,
          35.0158859
        ]
      },
      "properties": {
        "osmid": 358015553,
        "cellid": 45,
        "name": "나주시",
        "name:ko": "나주시",
        "name:en": "Naju-si"
      }
    },
    {
      "type": "Feature",
      "geometry": {
        "type": "Point",
        "coordinates": [
          127.3903713,
          35.4163118
        ]
      },
      "properties": {
        "osmid": 358015558,
        "cellid": 46,
        "name": "남원시",
        "name:ko": "남원시",
        "name:en": "Namwon"
      }
    },
    {
      "type": "Feature",
      "geometry": {
        "type": "Point",
        "coordinates": [
          127.289,
          36.4799999
        ]
      },
      "properties": {
        "osmid": 358896776,
        "cellid": 47,
        "name": "세종",
        "name:ko": "세종",
        "name:en": "Sejong"
      }
    },
    {
      "type": "Feature",
      "geometry": {
        "type": "Point",
        "coordinates": [
          128.942,
          35.98842
        ]
      },
      "properties": {
        "osmid": 415148619,
        "cellid": 48,
        "name": "영천시",
        "name:ko": "영천시",
        "name:en": "Yeongcheon-si"
      }
    },
    {
      "type": "Feature",
      "geometry": {
        "type": "Point",
        "coordinates": [
          128.5913424,
          38.2069574
        ]
      },
      "properties": {
        "osmid": 415151931,
        "cellid": 49,
        "name": "속초시",
        "name:ko": "속초시",
        "name:en": "Sokcho-si"
      }
    },
    {
      "type": "Feature",
      "geometry": {
        "type": "Point",
        "coordinates": [
          127.0457771,
          37.7849312
        ]
      },
      "properties": {
        "osmid": 415152872,
        "cellid": 50,
        "name": "양주시",
        "name:ko": "양주시",
        "name:en": "Yangju"
      }
    },
    {
      "type": "Feature",
      "geometry": {
        "type": "Point",
        "coordinates": [
          127.0605175,
          37.9030856
        ]
      },
      "properties": {
        "osmid": 415152911,
        "cellid": 51,
        "name": "동두천시",
        "name:ko": "동두천시",
        "name:en": "Dongducheon-si"
      }
    },
    {
      "type": "Feature",
      "geometry": {
        "type": "Point",
        "coordinates": [
          127.2007295,
          37.8948267
        ]
      },
      "properties": {
        "osmid": 415152942,
        "cellid": 52,
        "name": "포천시",
        "name:ko": "포천시",
        "name:en": "Pocheon-si"
      }
    },
    {
      "type": "Feature",
      "geometry": {
        "type": "Point",
        "coordinates": [
          129.1146302,
          37.5245142
        ]
      },
      "properties": {
        "osmid": 415152982,
        "cellid": 53,
        "name": "동해시",
        "name:ko": "동해시",
        "name:en": "Donghae-si"
      }
    },
    {
      "type": "Feature",
      "geometry": {
        "type": "Point",
        "coordinates": [
          128.8759523,
          37.7525313
        ]
      },
      "properties": {
        "osmid": 415153024,
        "cellid": 54,
        "name": "강릉시",
        "name:ko": "강릉시",
        "name:en": "Gangneung-si"
      }
    },
    {
      "type": "Feature",
      "geometry": {
        "type": "Point",
        "coordinates": [
          127.1297917,
          37.5941315
        ]
      },
      "properties": {
        "osmid": 415154093,
        "cellid": 55,
        "name": "구리시",
        "name:ko": "구리시",
        "name:en": "Guri-si"
      }
    },
    {
      "type": "Feature",
      "geometry": {
        "type": "Point",
        "coordinates": [
          127.2165051,
          37.6359398
        ]
      },
      "properties": {
        "osmid": 415154165,
        "cellid": 56,
        "name": "남양주시",
        "name:ko": "남양주시",
        "name:en": "Namyangju-si"
      }
    },
    {
      "type": "Feature",
      "geometry": {
        "type": "Point",
        "coordinates": [
          127.2149292,
          37.5392174
        ]
      },
      "properties": {
        "osmid": 415154181,
        "cellid": 57,
        "name": "하남시",
        "name:ko": "하남시",
        "name:en": "Hanam-si"
      }
    },
    {
      "type": "Feature",
      "geometry": {
        "type": "Point",
        "coordinates": [
          129.1652969,
          37.4498745
        ]
      },
      "properties": {
        "osmid": 415154216,
        "cellid": 58,
        "name": "삼척시",
        "name:ko": "삼척시",
        "name:en": "Samcheok-si"
      }
    },
    {
      "type": "Feature",
      "geometry": {
        "type": "Point",
        "coordinates": [
          127.9197603,
          37.3420996
        ]
      },
      "properties": {
        "osmid": 415154551,
        "cellid": 59,
        "name": "원주시",
        "name:ko": "원주시",
        "name:en": "Wonju-si"
      }
    },
    {
      "type": "Feature",
      "geometry": {
        "type": "Point",
        "coordinates": [
          127.637033,
          37.2982901
        ]
      },
      "properties": {
        "osmid": 415154705,
        "cellid": 60,
        "name": "여주시",
        "name:ko": "여주시",
        "name:en": "Yeoju-si"
      }
    },
    {
      "type": "Feature",
      "geometry": {
        "type": "Point",
        "coordinates": [
          127.255189,
          37.4290844
        ]
      },
      "properties": {
        "osmid": 415155086,
        "cellid": 61,
        "name": "광주시",
        "name:ko": "광주시",
        "name:en": "Gwangju-si"
      }
    },
    {
      "type": "Feature",
      "geometry": {
        "type": "Point",
        "coordinates": [
          128.1913508,
          37.1326042
        ]
      },
      "properties": {
        "osmid": 415155618,
        "cellid": 62,
        "name": "제천시",
        "name:ko": "제천시",
        "name:en": "Jecheon-si"
      }
    },
    {
      "type": "Feature",
      "geometry": {
        "type": "Point",
        "coordinates": [
          127.9259891,
          36.9907334
        ]
      },
      "properties": {
        "osmid": 415155721,
        "cellid": 63,
        "name": "충주시",
        "name:ko": "충주시",
        "name:en": "Chungju-si"
      }
    },
    {
      "type": "Feature",
      "geometry": {
        "type": "Point",
        "coordinates": [
          126.8312632,
          37.1994653
        ]
      },
      "properties": {
        "osmid": 415156263,
        "cellid": 64,
        "name": "화성시",
        "name:ko": "화성시",
        "name:en": "Hwaseong-si"
      }
    },
    {
      "type": "Feature",
      "geometry": {
        "type": "Point",
        "coordinates": [
          127.1127168,
          36.9924966
        ]
      },
      "properties": {
        "osmid": 415156335,
        "cellid": 65,
        "name": "평택시",
        "name:ko": "평택시",
        "name:en": "Pyeongtaek"
      }
    },
    {
      "type": "Feature",
      "geometry": {
        "type": "Point",
        "coordinates": [
          127.1785572,
          37.2405741
        ]
      },
      "properties": {
        "osmid": 415156460,
        "cellid": 66,
        "name": "용인시",
        "name:ko": "용인시",
        "name:en": "Yongin-si"
      }
    },
    {
      "type": "Feature",
      "geometry": {
        "type": "Point",
        "coordinates": [
          127.0026769,
          36.7899498
        ]
      },
      "properties": {
        "osmid": 415157893,
        "cellid": 67,
        "name": "아산시",
        "name:ko": "아산시",
        "name:en": "Asan-si"
      }
    },
    {
      "type": "Feature",
      "geometry": {
        "type": "Point",
        "coordinates": [
          127.1140654,
          36.8150283
        ]
      },
      "properties": {
        "osmid": 415158162,
        "cellid": 68,
        "name": "천안시",
        "name:ko": "천안시",
        "name:en": "Cheonan-si"
      }
    },
    {
      "type": "Feature",
      "geometry": {
        "type": "Point",
        "coordinates": [
          127.09124,
          36.47257
        ]
      },
      "properties": {
        "osmid": 415161922,
        "cellid": 69,
        "name": "공주시",
        "name:ko": "공주시",
        "name:en": "Gongju-si"
      }
    },
    {
      "type": "Feature",
      "geometry": {
        "type": "Point",
        "coordinates": [
          127.2472702,
          36.275523
        ]
      },
      "properties": {
        "osmid": 415161986,
        "cellid": 70,
        "name": "계룡시",
        "name:ko": "계룡시",
        "name:en": "Gyeryong-si"
      }
    },
    {
      "type": "Feature",
      "geometry": {
        "type": "Point",
        "coordinates": [
          128.09022,
          36.07783
        ]
      },
      "properties": {
        "osmid": 415162581,
        "cellid": 71,
        "name": "김천시",
        "name:ko": "김천시",
        "name:en": "Gimcheon-si"
      }
    },
    {
      "type": "Feature",
      "geometry": {
        "type": "Point",
        "coordinates": [
          126.7052,
          37.456
        ]
      },
      "properties": {
        "osmid": 1831812850,
        "cellid": 72,
        "name": "인천",
        "name:ko": "인천",
        "name:en": "Incheon"
      }
    },
    {
      "type": "Feature",
      "geometry": {
        "type": "Point",
        "coordinates": [
          126.9881655,
          37.4289037
        ]
      },
      "properties": {
        "osmid": 1910974426,
        "cellid": 73,
        "name": "과천시",
        "name:ko": "과천시",
        "name:en": "Gwacheon-si"
      }
    },
    {
      "type": "Feature",
      "geometry": {
        "type": "Point",
        "coordinates": [
          126.9782914,
          37.5666791
        ]
      },
      "properties": {
        "osmid": 1912365631,
        "cellid": 74,
        "name": "서울",
        "name:ko": "서울",
        "name:en": "Seoul"
      }
    },
    {
      "type": "Feature",
      "geometry": {
        "type": "Point",
        "coordinates": [
          126.9570605,
          37.3938528
        ]
      },
      "properties": {
        "osmid": 1912558035,
        "cellid": 75,
        "name": "안양시",
        "name:ko": "안양시",
        "name:en": "Anyang-si"
      }
    },
    {
      "type": "Feature",
      "geometry": {
        "type": "Point",
        "coordinates": [
          126.7660139,
          37.5014422
        ]
      },
      "properties": {
        "osmid": 1912558038,
        "cellid": 76,
        "name": "부천시",
        "name:ko": "부천시",
        "name:en": "Bucheon"
      }
    },
    {
      "type": "Feature",
      "geometry": {
        "type": "Point",
        "coordinates": [
          126.8631275,
          37.4810539
        ]
      },
      "properties": {
        "osmid": 1912558055,
        "cellid": 77,
        "name": "광명시",
        "name:ko": "광명시",
        "name:en": "Gwangmyeong-si"
      }
    },
    {
      "type": "Feature",
      "geometry": {
        "type": "Point",
        "coordinates": [
          126.8032255,
          37.3798891
        ]
      },
      "properties": {
        "osmid": 1912558057,
        "cellid": 78,
        "name": "시흥시",
        "name:ko": "시흥시",
        "name:en": "Siheung-si"
      }
    },
    {
      "type": "Feature",
      "geometry": {
        "type": "Point",
        "coordinates": [
          126.6461833,
          36.8904083
        ]
      },
      "properties": {
        "osmid": 3428290497,
        "cellid": 79,
        "name": "당진시",
        "name:ko": "당진시",
        "name:en": "Dangjin-si"
      }
    },
    {
      "type": "Feature",
      "geometry": {
        "type": "Point",
        "coordinates": [
          126.7157891,
          37.615461
        ]
      },
      "properties": {
        "osmid": 4909017636,
        "cellid": 80,
        "name": "김포시",
        "name:ko": "김포시",
        "name:en": "Gimpo-si"
      }
    },
    {
      "type": "Feature",
      "geometry": {
        "type": "Point",
        "coordinates": [
          126.7669591,
          34.641917
        ]
      },
      "properties": {
        "osmid": 5424418655,
        "cellid": 81,
        "name": "강진군",
        "name:ko": "강진군",
        "name:en": "Gangjin-gun"
      }
    },
    {
      "type": "Feature",
      "geometry": {
        "type": "Point",
        "coordinates": [
          126.515299,
          33.2572971
        ]
      },
      "properties": {
        "osmid": 5424418659,
        "cellid": 82,
        "name": "서귀포시",
        "name:ko": "서귀포시",
        "name:en": "Seogwipo-si"
      }
    },
    {
      "type": "Feature",
      "geometry": {
        "type": "Point",
        "coordinates": [
          129.3119136,
          35.5391697
        ]
      },
      "properties": {
        "osmid": 6612437350,
        "cellid": 83,
        "name": "울산",
        "name:ko": "울산",
        "name:en": "Ulsan"
      }
    },
    {
      "type": "Feature",
      "geometry": {
        "type": "Point",
        "coordinates": [
          126.7801502,
          37.7598955
        ]
      },
      "properties": {
        "osmid": 6780463693,
        "cellid": 84,
        "name": "파주시",
        "name:ko": "파주시",
        "name:en": "Paju"
      }
    },
    {
      "type": "Feature",
      "geometry": {
        "type": "Point",
        "coordinates": [
          128.9857176,
          37.1637943
        ]
      },
      "properties": {
        "osmid": 6919770645,
        "cellid": 85,
        "name": "태백시",
        "name:ko": "태백시",
        "name:en": "Taebaek"
      }
    }
  ]
}